[
  {
    "id" : 440000,
    "name" : "广东省",
    "level" : 1,
    "parentId" : 0,
    "longitude" : 113.2665,
    "latitude" : 23.1322
  },
  {
    "id" : 440100,
    "name" : "广州市",
    "level" : 2,
    "parentId" : 440000,
    "longitude" : 113.2644,
    "latitude" : 23.1291
  },
  {
    "id" : 440103,
    "name" : "荔湾区",
    "level" : 3,
    "parentId" : 440100,
    "longitude" : 113.2443,
    "latitude" : 23.126
  },
  {
    "id" : 440104,
    "name" : "越秀区",
    "level" : 3,
    "parentId" : 440100,
    "longitude" : 113.2668,
    "latitude" : 23.1285
  },
  {
    "id" : 440105,
    "name" : "海珠区",
    "level" : 3,
    "parentId" : 440100,
    "longitude" : 113.3174,
    "latitude" : 23.0838
  },
  {
    "id" : 440106,
    "name" : "天河区",
    "level" : 3,
    "parentId" : 440100,
    "longitude" : 113.3612,
    "latitude" : 23.1247
  },
  {
    "id" : 440111,
    "name" : "白云区",
    "level" : 3,
    "parentId" : 440100,
    "longitude" : 113.2733,
    "latitude" : 23.1573
  },
  {
    "id" : 440112,
    "name" : "黄埔区",
    "level" : 3,
    "parentId" : 440100,
    "longitude" : 113.4597,
    "latitude" : 23.1064
  },
  {
    "id" : 440113,
    "name" : "番禺区",
    "level" : 3,
    "parentId" : 440100,
    "longitude" : 113.3841,
    "latitude" : 22.9372
  },
  {
    "id" : 440114,
    "name" : "花都区",
    "level" : 3,
    "parentId" : 440100,
    "longitude" : 113.2202,
    "latitude" : 23.4042
  },
  {
    "id" : 440115,
    "name" : "南沙区",
    "level" : 3,
    "parentId" : 440100,
    "longitude" : 113.5252,
    "latitude" : 22.8016
  },
  {
    "id" : 440117,
    "name" : "从化区",
    "level" : 3,
    "parentId" : 440100,
    "longitude" : 113.5866,
    "latitude" : 23.5489
  },
  {
    "id" : 440118,
    "name" : "增城区",
    "level" : 3,
    "parentId" : 440100,
    "longitude" : 113.8109,
    "latitude" : 23.2611
  },
  {
    "id" : 440200,
    "name" : "韶关市",
    "level" : 2,
    "parentId" : 440000,
    "longitude" : 113.5975,
    "latitude" : 24.8103
  },
  {
    "id" : 440203,
    "name" : "武江区",
    "level" : 3,
    "parentId" : 440200,
    "longitude" : 113.5878,
    "latitude" : 24.7929
  },
  {
    "id" : 440204,
    "name" : "浈江区",
    "level" : 3,
    "parentId" : 440200,
    "longitude" : 113.6111,
    "latitude" : 24.8044
  },
  {
    "id" : 440205,
    "name" : "曲江区",
    "level" : 3,
    "parentId" : 440200,
    "longitude" : 113.6045,
    "latitude" : 24.6827
  },
  {
    "id" : 440222,
    "name" : "始兴县",
    "level" : 3,
    "parentId" : 440200,
    "longitude" : 114.0618,
    "latitude" : 24.953
  },
  {
    "id" : 440224,
    "name" : "仁化县",
    "level" : 3,
    "parentId" : 440200,
    "longitude" : 113.749,
    "latitude" : 25.0856
  },
  {
    "id" : 440229,
    "name" : "翁源县",
    "level" : 3,
    "parentId" : 440200,
    "longitude" : 114.1303,
    "latitude" : 24.3503
  },
  {
    "id" : 440232,
    "name" : "乳源瑶族自治县",
    "level" : 3,
    "parentId" : 440200,
    "longitude" : 113.2759,
    "latitude" : 24.7761
  },
  {
    "id" : 440233,
    "name" : "新丰县",
    "level" : 3,
    "parentId" : 440200,
    "longitude" : 114.2069,
    "latitude" : 24.0598
  },
  {
    "id" : 440281,
    "name" : "乐昌市",
    "level" : 3,
    "parentId" : 440200,
    "longitude" : 113.3475,
    "latitude" : 25.1301
  },
  {
    "id" : 440282,
    "name" : "南雄市",
    "level" : 3,
    "parentId" : 440200,
    "longitude" : 114.312,
    "latitude" : 25.1178
  },
  {
    "id" : 440300,
    "name" : "深圳市",
    "level" : 2,
    "parentId" : 440000,
    "longitude" : 114.0579,
    "latitude" : 22.5431
  },
  {
    "id" : 440303,
    "name" : "罗湖区",
    "level" : 3,
    "parentId" : 440300,
    "longitude" : 114.1318,
    "latitude" : 22.5482
  },
  {
    "id" : 440304,
    "name" : "福田区",
    "level" : 3,
    "parentId" : 440300,
    "longitude" : 114.055,
    "latitude" : 22.5215
  },
  {
    "id" : 440305,
    "name" : "南山区",
    "level" : 3,
    "parentId" : 440300,
    "longitude" : 113.9305,
    "latitude" : 22.533
  },
  {
    "id" : 440306,
    "name" : "宝安区",
    "level" : 3,
    "parentId" : 440300,
    "longitude" : 113.884,
    "latitude" : 22.5553
  },
  {
    "id" : 440307,
    "name" : "龙岗区",
    "level" : 3,
    "parentId" : 440300,
    "longitude" : 114.2469,
    "latitude" : 22.721
  },
  {
    "id" : 440308,
    "name" : "盐田区",
    "level" : 3,
    "parentId" : 440300,
    "longitude" : 114.2369,
    "latitude" : 22.5565
  },
  {
    "id" : 440400,
    "name" : "珠海市",
    "level" : 2,
    "parentId" : 440000,
    "longitude" : 113.5767,
    "latitude" : 22.271
  },
  {
    "id" : 440402,
    "name" : "香洲区",
    "level" : 3,
    "parentId" : 440400,
    "longitude" : 113.5438,
    "latitude" : 22.2658
  },
  {
    "id" : 440403,
    "name" : "斗门区",
    "level" : 3,
    "parentId" : 440400,
    "longitude" : 113.2965,
    "latitude" : 22.2092
  },
  {
    "id" : 440404,
    "name" : "金湾区",
    "level" : 3,
    "parentId" : 440400,
    "longitude" : 113.3634,
    "latitude" : 22.1469
  },
  {
    "id" : 440500,
    "name" : "汕头市",
    "level" : 2,
    "parentId" : 440000,
    "longitude" : 116.682,
    "latitude" : 23.3541
  },
  {
    "id" : 440507,
    "name" : "龙湖区",
    "level" : 3,
    "parentId" : 440500,
    "longitude" : 116.7164,
    "latitude" : 23.3723
  },
  {
    "id" : 440511,
    "name" : "金平区",
    "level" : 3,
    "parentId" : 440500,
    "longitude" : 116.7035,
    "latitude" : 23.3656
  },
  {
    "id" : 440512,
    "name" : "濠江区",
    "level" : 3,
    "parentId" : 440500,
    "longitude" : 116.727,
    "latitude" : 23.2861
  },
  {
    "id" : 440513,
    "name" : "潮阳区",
    "level" : 3,
    "parentId" : 440500,
    "longitude" : 116.6015,
    "latitude" : 23.2649
  },
  {
    "id" : 440514,
    "name" : "潮南区",
    "level" : 3,
    "parentId" : 440500,
    "longitude" : 116.4331,
    "latitude" : 23.2506
  },
  {
    "id" : 440515,
    "name" : "澄海区",
    "level" : 3,
    "parentId" : 440500,
    "longitude" : 116.756,
    "latitude" : 23.4667
  },
  {
    "id" : 440523,
    "name" : "南澳县",
    "level" : 3,
    "parentId" : 440500,
    "longitude" : 117.0234,
    "latitude" : 23.4217
  },
  {
    "id" : 440600,
    "name" : "佛山市",
    "level" : 2,
    "parentId" : 440000,
    "longitude" : 113.1214,
    "latitude" : 23.0215
  },
  {
    "id" : 440604,
    "name" : "禅城区",
    "level" : 3,
    "parentId" : 440600,
    "longitude" : 113.1224,
    "latitude" : 23.0095
  },
  {
    "id" : 440605,
    "name" : "南海区",
    "level" : 3,
    "parentId" : 440600,
    "longitude" : 113.1434,
    "latitude" : 23.029
  },
  {
    "id" : 440606,
    "name" : "顺德区",
    "level" : 3,
    "parentId" : 440600,
    "longitude" : 113.2934,
    "latitude" : 22.8052
  },
  {
    "id" : 440607,
    "name" : "三水区",
    "level" : 3,
    "parentId" : 440600,
    "longitude" : 112.8966,
    "latitude" : 23.156
  },
  {
    "id" : 440608,
    "name" : "高明区",
    "level" : 3,
    "parentId" : 440600,
    "longitude" : 112.8926,
    "latitude" : 22.9002
  },
  {
    "id" : 440700,
    "name" : "江门市",
    "level" : 2,
    "parentId" : 440000,
    "longitude" : 113.0815,
    "latitude" : 22.5791
  },
  {
    "id" : 440703,
    "name" : "蓬江区",
    "level" : 3,
    "parentId" : 440700,
    "longitude" : 113.0785,
    "latitude" : 22.5951
  },
  {
    "id" : 440704,
    "name" : "江海区",
    "level" : 3,
    "parentId" : 440700,
    "longitude" : 113.1116,
    "latitude" : 22.5605
  },
  {
    "id" : 440705,
    "name" : "新会区",
    "level" : 3,
    "parentId" : 440700,
    "longitude" : 113.0342,
    "latitude" : 22.4583
  },
  {
    "id" : 440781,
    "name" : "台山市",
    "level" : 3,
    "parentId" : 440700,
    "longitude" : 112.7941,
    "latitude" : 22.2519
  },
  {
    "id" : 440783,
    "name" : "开平市",
    "level" : 3,
    "parentId" : 440700,
    "longitude" : 112.6985,
    "latitude" : 22.3764
  },
  {
    "id" : 440784,
    "name" : "鹤山市",
    "level" : 3,
    "parentId" : 440700,
    "longitude" : 112.9644,
    "latitude" : 22.7654
  },
  {
    "id" : 440785,
    "name" : "恩平市",
    "level" : 3,
    "parentId" : 440700,
    "longitude" : 112.3051,
    "latitude" : 22.1832
  },
  {
    "id" : 440800,
    "name" : "湛江市",
    "level" : 2,
    "parentId" : 440000,
    "longitude" : 110.3593,
    "latitude" : 21.2707
  },
  {
    "id" : 440802,
    "name" : "赤坎区",
    "level" : 3,
    "parentId" : 440800,
    "longitude" : 110.3659,
    "latitude" : 21.2661
  },
  {
    "id" : 440803,
    "name" : "霞山区",
    "level" : 3,
    "parentId" : 440800,
    "longitude" : 110.3981,
    "latitude" : 21.1917
  },
  {
    "id" : 440804,
    "name" : "坡头区",
    "level" : 3,
    "parentId" : 440800,
    "longitude" : 110.4553,
    "latitude" : 21.2447
  },
  {
    "id" : 440811,
    "name" : "麻章区",
    "level" : 3,
    "parentId" : 440800,
    "longitude" : 110.3344,
    "latitude" : 21.2634
  },
  {
    "id" : 440823,
    "name" : "遂溪县",
    "level" : 3,
    "parentId" : 440800,
    "longitude" : 110.2501,
    "latitude" : 21.3772
  },
  {
    "id" : 440825,
    "name" : "徐闻县",
    "level" : 3,
    "parentId" : 440800,
    "longitude" : 110.1767,
    "latitude" : 20.3255
  },
  {
    "id" : 440881,
    "name" : "廉江市",
    "level" : 3,
    "parentId" : 440800,
    "longitude" : 110.2862,
    "latitude" : 21.6097
  },
  {
    "id" : 440882,
    "name" : "雷州市",
    "level" : 3,
    "parentId" : 440800,
    "longitude" : 110.0966,
    "latitude" : 20.9142
  },
  {
    "id" : 440883,
    "name" : "吴川市",
    "level" : 3,
    "parentId" : 440800,
    "longitude" : 110.7784,
    "latitude" : 21.4418
  },
  {
    "id" : 440900,
    "name" : "茂名市",
    "level" : 2,
    "parentId" : 440000,
    "longitude" : 110.9255,
    "latitude" : 21.663
  },
  {
    "id" : 440902,
    "name" : "茂南区",
    "level" : 3,
    "parentId" : 440900,
    "longitude" : 110.918,
    "latitude" : 21.6413
  },
  {
    "id" : 440904,
    "name" : "电白区",
    "level" : 3,
    "parentId" : 440900,
    "longitude" : 111.0136,
    "latitude" : 21.5142
  },
  {
    "id" : 440981,
    "name" : "高州市",
    "level" : 3,
    "parentId" : 440900,
    "longitude" : 110.8533,
    "latitude" : 21.918
  },
  {
    "id" : 440982,
    "name" : "化州市",
    "level" : 3,
    "parentId" : 440900,
    "longitude" : 110.6396,
    "latitude" : 21.664
  },
  {
    "id" : 440983,
    "name" : "信宜市",
    "level" : 3,
    "parentId" : 440900,
    "longitude" : 110.947,
    "latitude" : 22.3544
  },
  {
    "id" : 441200,
    "name" : "肇庆市",
    "level" : 2,
    "parentId" : 440000,
    "longitude" : 112.4651,
    "latitude" : 23.0472
  },
  {
    "id" : 441202,
    "name" : "端州区",
    "level" : 3,
    "parentId" : 441200,
    "longitude" : 112.4848,
    "latitude" : 23.0521
  },
  {
    "id" : 441203,
    "name" : "鼎湖区",
    "level" : 3,
    "parentId" : 441200,
    "longitude" : 112.5676,
    "latitude" : 23.1584
  },
  {
    "id" : 441204,
    "name" : "高要区",
    "level" : 3,
    "parentId" : 441200,
    "longitude" : 112.458,
    "latitude" : 23.0257
  },
  {
    "id" : 441223,
    "name" : "广宁县",
    "level" : 3,
    "parentId" : 441200,
    "longitude" : 112.4407,
    "latitude" : 23.6347
  },
  {
    "id" : 441224,
    "name" : "怀集县",
    "level" : 3,
    "parentId" : 441200,
    "longitude" : 112.1847,
    "latitude" : 23.9119
  },
  {
    "id" : 441225,
    "name" : "封开县",
    "level" : 3,
    "parentId" : 441200,
    "longitude" : 111.5123,
    "latitude" : 23.424
  },
  {
    "id" : 441226,
    "name" : "德庆县",
    "level" : 3,
    "parentId" : 441200,
    "longitude" : 111.7859,
    "latitude" : 23.1437
  },
  {
    "id" : 441284,
    "name" : "四会市",
    "level" : 3,
    "parentId" : 441200,
    "longitude" : 112.7338,
    "latitude" : 23.3265
  },
  {
    "id" : 441300,
    "name" : "惠州市",
    "level" : 2,
    "parentId" : 440000,
    "longitude" : 114.4158,
    "latitude" : 23.1123
  },
  {
    "id" : 441302,
    "name" : "惠城区",
    "level" : 3,
    "parentId" : 441300,
    "longitude" : 114.3825,
    "latitude" : 23.0841
  },
  {
    "id" : 441303,
    "name" : "惠阳区",
    "level" : 3,
    "parentId" : 441300,
    "longitude" : 114.4565,
    "latitude" : 22.7891
  },
  {
    "id" : 441322,
    "name" : "博罗县",
    "level" : 3,
    "parentId" : 441300,
    "longitude" : 114.2895,
    "latitude" : 23.1728
  },
  {
    "id" : 441323,
    "name" : "惠东县",
    "level" : 3,
    "parentId" : 441300,
    "longitude" : 114.72,
    "latitude" : 22.985
  },
  {
    "id" : 441324,
    "name" : "龙门县",
    "level" : 3,
    "parentId" : 441300,
    "longitude" : 114.2549,
    "latitude" : 23.7277
  },
  {
    "id" : 441400,
    "name" : "梅州市",
    "level" : 2,
    "parentId" : 440000,
    "longitude" : 116.1222,
    "latitude" : 24.2886
  },
  {
    "id" : 441402,
    "name" : "梅江区",
    "level" : 3,
    "parentId" : 441400,
    "longitude" : 116.1166,
    "latitude" : 24.3104
  },
  {
    "id" : 441403,
    "name" : "梅县区",
    "level" : 3,
    "parentId" : 441400,
    "longitude" : 116.0821,
    "latitude" : 24.2653
  },
  {
    "id" : 441422,
    "name" : "大埔县",
    "level" : 3,
    "parentId" : 441400,
    "longitude" : 116.6952,
    "latitude" : 24.3478
  },
  {
    "id" : 441423,
    "name" : "丰顺县",
    "level" : 3,
    "parentId" : 441400,
    "longitude" : 116.1823,
    "latitude" : 23.7395
  },
  {
    "id" : 441424,
    "name" : "五华县",
    "level" : 3,
    "parentId" : 441400,
    "longitude" : 115.7758,
    "latitude" : 23.9324
  },
  {
    "id" : 441426,
    "name" : "平远县",
    "level" : 3,
    "parentId" : 441400,
    "longitude" : 115.8916,
    "latitude" : 24.5673
  },
  {
    "id" : 441427,
    "name" : "蕉岭县",
    "level" : 3,
    "parentId" : 441400,
    "longitude" : 116.1714,
    "latitude" : 24.6587
  },
  {
    "id" : 441481,
    "name" : "兴宁市",
    "level" : 3,
    "parentId" : 441400,
    "longitude" : 115.7311,
    "latitude" : 24.1366
  },
  {
    "id" : 441500,
    "name" : "汕尾市",
    "level" : 2,
    "parentId" : 440000,
    "longitude" : 115.3752,
    "latitude" : 22.7862
  },
  {
    "id" : 441502,
    "name" : "城区",
    "level" : 3,
    "parentId" : 441500,
    "longitude" : 115.365,
    "latitude" : 22.7787
  },
  {
    "id" : 441521,
    "name" : "海丰县",
    "level" : 3,
    "parentId" : 441500,
    "longitude" : 115.3234,
    "latitude" : 22.9666
  },
  {
    "id" : 441523,
    "name" : "陆河县",
    "level" : 3,
    "parentId" : 441500,
    "longitude" : 115.6601,
    "latitude" : 23.3016
  },
  {
    "id" : 441581,
    "name" : "陆丰市",
    "level" : 3,
    "parentId" : 441500,
    "longitude" : 115.6523,
    "latitude" : 22.9176
  },
  {
    "id" : 441600,
    "name" : "河源市",
    "level" : 2,
    "parentId" : 440000,
    "longitude" : 114.701,
    "latitude" : 23.7437
  },
  {
    "id" : 441602,
    "name" : "源城区",
    "level" : 3,
    "parentId" : 441600,
    "longitude" : 114.7025,
    "latitude" : 23.734
  },
  {
    "id" : 441621,
    "name" : "紫金县",
    "level" : 3,
    "parentId" : 441600,
    "longitude" : 115.1821,
    "latitude" : 23.6384
  },
  {
    "id" : 441622,
    "name" : "龙川县",
    "level" : 3,
    "parentId" : 441600,
    "longitude" : 115.2599,
    "latitude" : 24.1001
  },
  {
    "id" : 441623,
    "name" : "连平县",
    "level" : 3,
    "parentId" : 441600,
    "longitude" : 114.4887,
    "latitude" : 24.3696
  },
  {
    "id" : 441624,
    "name" : "和平县",
    "level" : 3,
    "parentId" : 441600,
    "longitude" : 114.9387,
    "latitude" : 24.4422
  },
  {
    "id" : 441625,
    "name" : "东源县",
    "level" : 3,
    "parentId" : 441600,
    "longitude" : 114.7464,
    "latitude" : 23.7884
  },
  {
    "id" : 441700,
    "name" : "阳江市",
    "level" : 2,
    "parentId" : 440000,
    "longitude" : 111.9822,
    "latitude" : 21.858
  },
  {
    "id" : 441702,
    "name" : "江城区",
    "level" : 3,
    "parentId" : 441700,
    "longitude" : 111.9551,
    "latitude" : 21.8618
  },
  {
    "id" : 441704,
    "name" : "阳东区",
    "level" : 3,
    "parentId" : 441700,
    "longitude" : 112.0063,
    "latitude" : 21.8684
  },
  {
    "id" : 441721,
    "name" : "阳西县",
    "level" : 3,
    "parentId" : 441700,
    "longitude" : 111.6178,
    "latitude" : 21.7524
  },
  {
    "id" : 441781,
    "name" : "阳春市",
    "level" : 3,
    "parentId" : 441700,
    "longitude" : 111.7915,
    "latitude" : 22.1704
  },
  {
    "id" : 441800,
    "name" : "清远市",
    "level" : 2,
    "parentId" : 440000,
    "longitude" : 113.056,
    "latitude" : 23.6818
  },
  {
    "id" : 441802,
    "name" : "清城区",
    "level" : 3,
    "parentId" : 441800,
    "longitude" : 113.0627,
    "latitude" : 23.6979
  },
  {
    "id" : 441803,
    "name" : "清新区",
    "level" : 3,
    "parentId" : 441800,
    "longitude" : 113.0177,
    "latitude" : 23.7347
  },
  {
    "id" : 441821,
    "name" : "佛冈县",
    "level" : 3,
    "parentId" : 441800,
    "longitude" : 113.5316,
    "latitude" : 23.8792
  },
  {
    "id" : 441823,
    "name" : "阳山县",
    "level" : 3,
    "parentId" : 441800,
    "longitude" : 112.6265,
    "latitude" : 24.4667
  },
  {
    "id" : 441825,
    "name" : "连山壮族瑶族自治县",
    "level" : 3,
    "parentId" : 441800,
    "longitude" : 112.0807,
    "latitude" : 24.5677
  },
  {
    "id" : 441826,
    "name" : "连南瑶族自治县",
    "level" : 3,
    "parentId" : 441800,
    "longitude" : 112.287,
    "latitude" : 24.726
  },
  {
    "id" : 441881,
    "name" : "英德市",
    "level" : 3,
    "parentId" : 441800,
    "longitude" : 113.4017,
    "latitude" : 24.207
  },
  {
    "id" : 441882,
    "name" : "连州市",
    "level" : 3,
    "parentId" : 441800,
    "longitude" : 112.3774,
    "latitude" : 24.781
  },
  {
    "id" : 441900,
    "name" : "东莞市",
    "level" : 2,
    "parentId" : 440000,
    "longitude" : 113.7518,
    "latitude" : 23.0207
  },
  {
    "id" : 441901,
    "name" : "东莞市区",
    "level" : 3,
    "parentId" : 441900,
    "longitude" : 113.7518,
    "latitude" : 23.0207
  },
  {
    "id" : 442000,
    "name" : "中山市",
    "level" : 2,
    "parentId" : 440000,
    "longitude" : 113.3927,
    "latitude" : 22.517
  },
  {
    "id" : 442001,
    "name" : "中山市区",
    "level" : 3,
    "parentId" : 442000,
    "longitude" : 113.3927,
    "latitude" : 22.517
  },
  {
    "id" : 445100,
    "name" : "潮州市",
    "level" : 2,
    "parentId" : 440000,
    "longitude" : 116.6228,
    "latitude" : 23.6567
  },
  {
    "id" : 445102,
    "name" : "湘桥区",
    "level" : 3,
    "parentId" : 445100,
    "longitude" : 116.6286,
    "latitude" : 23.6744
  },
  {
    "id" : 445103,
    "name" : "潮安区",
    "level" : 3,
    "parentId" : 445100,
    "longitude" : 116.6782,
    "latitude" : 23.4626
  },
  {
    "id" : 445122,
    "name" : "饶平县",
    "level" : 3,
    "parentId" : 445100,
    "longitude" : 117.0039,
    "latitude" : 23.6638
  },
  {
    "id" : 445200,
    "name" : "揭阳市",
    "level" : 2,
    "parentId" : 440000,
    "longitude" : 116.3728,
    "latitude" : 23.55
  },
  {
    "id" : 445202,
    "name" : "榕城区",
    "level" : 3,
    "parentId" : 445200,
    "longitude" : 116.367,
    "latitude" : 23.5252
  },
  {
    "id" : 445203,
    "name" : "揭东区",
    "level" : 3,
    "parentId" : 445200,
    "longitude" : 116.412,
    "latitude" : 23.5661
  },
  {
    "id" : 445222,
    "name" : "揭西县",
    "level" : 3,
    "parentId" : 445200,
    "longitude" : 115.8418,
    "latitude" : 23.4313
  },
  {
    "id" : 445224,
    "name" : "惠来县",
    "level" : 3,
    "parentId" : 445200,
    "longitude" : 116.2951,
    "latitude" : 23.0333
  },
  {
    "id" : 445281,
    "name" : "普宁市",
    "level" : 3,
    "parentId" : 445200,
    "longitude" : 116.1657,
    "latitude" : 23.2974
  },
  {
    "id" : 445300,
    "name" : "云浮市",
    "level" : 2,
    "parentId" : 440000,
    "longitude" : 112.0445,
    "latitude" : 22.9151
  },
  {
    "id" : 445302,
    "name" : "云城区",
    "level" : 3,
    "parentId" : 445300,
    "longitude" : 112.0439,
    "latitude" : 22.9281
  },
  {
    "id" : 445303,
    "name" : "云安区",
    "level" : 3,
    "parentId" : 445300,
    "longitude" : 112.0032,
    "latitude" : 23.071
  },
  {
    "id" : 445321,
    "name" : "新兴县",
    "level" : 3,
    "parentId" : 445300,
    "longitude" : 112.2253,
    "latitude" : 22.6957
  },
  {
    "id" : 445322,
    "name" : "郁南县",
    "level" : 3,
    "parentId" : 445300,
    "longitude" : 111.5352,
    "latitude" : 23.2346
  },
  {
    "id" : 445381,
    "name" : "罗定市",
    "level" : 3,
    "parentId" : 445300,
    "longitude" : 111.57,
    "latitude" : 22.7686
  },
  {
    "id" : 460000,
    "name" : "海南省",
    "level" : 1,
    "parentId" : 0,
    "longitude" : 109.9497,
    "latitude" : 19.5664
  },
  {
    "id" : 460100,
    "name" : "海口市",
    "level" : 2,
    "parentId" : 460000,
    "longitude" : 110.1983,
    "latitude" : 20.0444
  },
  {
    "id" : 460105,
    "name" : "秀英区",
    "level" : 3,
    "parentId" : 460100,
    "longitude" : 110.2936,
    "latitude" : 20.0080
  },
  {
    "id" : 460106,
    "name" : "龙华区",
    "level" : 3,
    "parentId" : 460100,
    "longitude" : 110.3285,
    "latitude" : 20.0310
  },
  {
    "id" : 460107,
    "name" : "琼山区",
    "level" : 3,
    "parentId" : 460100,
    "longitude" : 110.3540,
    "latitude" : 20.0032
  },
  {
    "id" : 460108,
    "name" : "美兰区",
    "level" : 3,
    "parentId" : 460100,
    "longitude" : 110.3664,
    "latitude" : 20.0291
  },
  {
    "id" : 460200,
    "name" : "三亚市",
    "level" : 2,
    "parentId" : 460000,
    "longitude" : 109.5119,
    "latitude" : 18.2528
  },
  {
    "id" : 460202,
    "name" : "海棠区",
    "level" : 3,
    "parentId" : 460200,
    "longitude" : 109.7526,
    "latitude" : 18.4001
  },
  {
    "id" : 460203,
    "name" : "吉阳区",
    "level" : 3,
    "parentId" : 460200,
    "longitude" : 109.5783,
    "latitude" : 18.2814
  },
  {
    "id" : 460204,
    "name" : "天涯区",
    "level" : 3,
    "parentId" : 460200,
    "longitude" : 109.4524,
    "latitude" : 18.2982
  },
  {
    "id" : 460205,
    "name" : "崖州区",
    "level" : 3,
    "parentId" : 460200,
    "longitude" : 109.1743,
    "latitude" : 18.3522
  },
  {
    "id" : 460300,
    "name" : "三沙市",
    "level" : 2,
    "parentId" : 460000,
    "longitude" : 112.34882,
    "latitude" : 16.831039
  },
  {
    "id" : 460301,
    "name" : "三沙市区",
    "level" : 3,
    "parentId" : 460300,
    "longitude" : 112.34882,
    "latitude" : 16.831039
  },
  {
    "id" : 460400,
    "name" : "儋州市",
    "level" : 2,
    "parentId" : 460000,
    "longitude" : 109.5808,
    "latitude" : 19.5211
  },
  {
    "id" : 460401,
    "name" : "儋州市区",
    "level" : 3,
    "parentId" : 460400,
    "longitude" : 109.5808,
    "latitude" : 19.5211
  },
  {
    "id" : 469000,
    "name" : "省直辖县市",
    "level" : 2,
    "parentId" : 460000,
    "longitude" : 109.5169,
    "latitude" : 18.7751
  },
  {
    "id" : 469001,
    "name" : "五指山市",
    "level" : 3,
    "parentId" : 469000,
    "longitude" : 109.5169,
    "latitude" : 18.7751
  },
  {
    "id" : 469002,
    "name" : "琼海市",
    "level" : 3,
    "parentId" : 469000,
    "longitude" : 110.4746,
    "latitude" : 19.2583
  },
  {
    "id" : 469005,
    "name" : "文昌市",
    "level" : 3,
    "parentId" : 469000,
    "longitude" : 110.7978,
    "latitude" : 19.5433
  },
  {
    "id" : 469006,
    "name" : "万宁市",
    "level" : 3,
    "parentId" : 469000,
    "longitude" : 110.3911,
    "latitude" : 18.7951
  },
  {
    "id" : 469007,
    "name" : "东方市",
    "level" : 3,
    "parentId" : 469000,
    "longitude" : 108.6518,
    "latitude" : 19.0954
  },
  {
    "id" : 469021,
    "name" : "定安县",
    "level" : 3,
    "parentId" : 469000,
    "longitude" : 110.3589,
    "latitude" : 19.6814
  },
  {
    "id" : 469022,
    "name" : "屯昌县",
    "level" : 3,
    "parentId" : 469000,
    "longitude" : 110.1034,
    "latitude" : 19.3518
  },
  {
    "id" : 469023,
    "name" : "澄迈县",
    "level" : 3,
    "parentId" : 469000,
    "longitude" : 110.0068,
    "latitude" : 19.7385
  },
  {
    "id" : 469024,
    "name" : "临高县",
    "level" : 3,
    "parentId" : 469000,
    "longitude" : 109.6905,
    "latitude" : 19.9120
  },
  {
    "id" : 469025,
    "name" : "白沙黎族自治县",
    "level" : 3,
    "parentId" : 469000,
    "longitude" : 109.4515,
    "latitude" : 19.2248
  },
  {
    "id" : 469026,
    "name" : "昌江黎族自治县",
    "level" : 3,
    "parentId" : 469000,
    "longitude" : 109.0557,
    "latitude" : 19.2982
  },
  {
    "id" : 469027,
    "name" : "乐东黎族自治县",
    "level" : 3,
    "parentId" : 469000,
    "longitude" : 109.1731,
    "latitude" : 18.7503
  },
  {
    "id" : 469028,
    "name" : "陵水黎族自治县",
    "level" : 3,
    "parentId" : 469000,
    "longitude" : 110.0375,
    "latitude" : 18.5060
  },
  {
    "id" : 469029,
    "name" : "保亭黎族苗族自治县",
    "level" : 3,
    "parentId" : 469000,
    "longitude" : 109.7026,
    "latitude" : 18.6391
  },
  {
    "id" : 469030,
    "name" : "琼中黎族苗族自治县",
    "level" : 3,
    "parentId" : 469000,
    "longitude" : 109.8384,
    "latitude" : 19.0334
  }
]
